{
  "type": "FeatureCollection",
  "name": "natural-labels",
  "data_layers": [],
  "features": [
    {
      "type": "Feature",
      "geometry": {
        "type": "Point",
        "coordinates": [-114.783, 35.375]
      },
      "properties": {
        "place_name": "Valleys of Southern California and Nevada",
        "zoom": 8,
        "place_description": "A regional area with several line and point valley labels",
        "tags": ["landform"]
      }
    },
    {
      "type": "Feature",
      "geometry": {
        "type": "Point",
        "coordinates": [-77.061, 38.903]
      },
      "properties": {
        "place_name": "Chesapeake and Ohio Canal, Washington, D.C.",
        "zoom": 16,
        "place_description": "A small canal feature within an urban context",
        "tags": ["canal"]
      }
    },
    {
      "type": "Feature",
      "geometry": {
        "type": "Point",
        "coordinates": [-82.729, 35.477]
      },
      "properties": {
        "place_name": "Southern Appalacian Mountain Range, North Carolina",
        "zoom": 10,
        "place_description": "A field of mountain-peak labels near Asheville, NC",
        "tags": ["landform", "mountain"]
      }
    },
    {
      "type": "Feature",
      "geometry": {
        "type": "Point",
        "coordinates": [-118.29, 36.579]
      },
      "properties": {
        "place_name": "Sierra Nevada Mountain Range, California",
        "zoom": 12,
        "place_description": "A field of mountain-peak labels near Mount Whitney",
        "tags": ["landform", "mountain"]
      }
    },
    {
      "type": "Feature",
      "geometry": {
        "type": "Point",
        "coordinates": [-118.726, 36.613]
      },
      "properties": {
        "place_name": "Sierra Nevada Mountain Range, California",
        "zoom": 8,
        "place_description": "A field of mountain-peak labels within Californian mountain range",
        "tags": ["landform", "mountain"]
      }
    },
    {
      "type": "Feature",
      "geometry": {
        "type": "Point",
        "coordinates": [-127.089, 49.872]
      },
      "properties": {
        "place_name": "Nootka Island, Vancouver Island, Canada",
        "zoom": 9,
        "place_description": "A field of Island labels along the Vancouver Island coast-line",
        "tags": ["landform"]
      }
    },
    {
      "type": "Feature",
      "geometry": {
        "type": "Point",
        "coordinates": [-77.044, 38.89]
      },
      "properties": {
        "place_name": "Lincoln Memorial Reflecting Pool and Constitution Gardens Pond, Washington, D.C.",
        "zoom": 16,
        "place_description": "Small-scale water features within an urban context",
        "tags": ["water"]
      }
    },
    {
      "type": "Feature",
      "geometry": {
        "type": "Point",
        "coordinates": [-68.328, 44.348]
      },
      "properties": {
        "place_name": "Arcadia National Park, Maine",
        "zoom": 11,
        "place_description": "A potpourri of natural label elements within a National Park",
        "tags": ["landform", "wetland"]
      }
    },
    {
      "type": "Feature",
      "geometry": {
        "type": "Point",
        "coordinates": [-122.194, 41.406]
      },
      "properties": {
        "place_name": "Mount Shasta, California",
        "zoom": 12,
        "place_description": "A field of point and line glacier labels",
        "tags": ["glacier"]
      }
    },
    {
      "type": "Feature",
      "geometry": {
        "type": "Point",
        "coordinates": [-112.136, 36.146]
      },
      "properties": {
        "place_name": "Grand Canyon National Park, Arizona",
        "zoom": 8,
        "place_description": "A field of mountain-peak, temple, point and hill point labels",
        "tags": ["landform", "mountain"]
      }
    },
    {
      "type": "Feature",
      "geometry": {
        "type": "Point",
        "coordinates": [-112.12, 36.111]
      },
      "properties": {
        "place_name": "Grand Canyon National Park, Arizona",
        "zoom": 11,
        "place_description": "A field of mountain-peak, temple, point and hill point labels",
        "tags": ["landform", "mountain"]
      }
    }
  ]
}
